,City,Cloudiness,Country,Date,Humidity,Lat,Lng,Max Temp,Wind Speed
0,Rikitea,0,PF,1566429785,76,-23.12,-134.97,22.22,2.26
1,Yellowknife,75,CA,1566430030,49,62.45,-114.38,20.56,7.7
2,Atuona,0,PF,1566430030,74,-9.8,-139.03,26.82,9.02
3,Port Alfred,0,ZA,1566430030,82,-33.59,26.89,13.33,0.45
4,Punta Arenas,90,CL,1566429881,93,-53.16,-70.91,4.0,7.7
5,Hobart,40,AU,1566430031,78,-42.88,147.33,8.33,7.2
6,Altamira,33,BR,1566430031,66,-3.2,-52.21,25.02,0.93
7,Bauchi,98,NG,1566430031,94,10.31,9.85,20.32,1.4
8,Bredasdorp,61,ZA,1566430032,87,-34.53,20.04,9.44,1.6
9,Georgetown,75,GY,1566429922,94,6.8,-58.16,29.0,2.1
10,Mataura,81,NZ,1566429860,74,-46.19,168.86,11.67,2.24
11,Butaritari,29,KI,1566430032,76,3.07,172.79,29.22,6.74
12,Taoudenni,1,ML,1566430032,19,22.68,-3.98,36.42,1.39
13,Thinadhoo,100,MV,1566430032,68,0.53,72.93,28.22,2.44
14,Mount Isa,10,AU,1566430033,20,-20.73,139.49,17.0,5.7
15,Altagracia de Orituco,89,VE,1566430033,97,9.86,-66.38,20.52,0.62
16,Geraldton,75,CA,1566430033,82,49.72,-86.95,13.0,2.6
17,Port Hedland,0,AU,1566430033,34,-20.31,118.58,11.0,4.6
18,Aksarka,87,RU,1566430034,82,66.56,67.8,10.52,2.45
19,Hithadhoo,99,MV,1566430034,70,-0.6,73.08,28.02,2.39
20,Nikolskoye,75,RU,1566430034,100,59.7,30.79,15.0,2.0
21,Puerto Escondido,90,MX,1566430034,66,15.86,-97.07,30.0,0.95
22,Atar,41,MR,1566430035,30,20.52,-13.05,34.22,4.35
23,Saint-Philippe,1,CA,1566429941,83,45.36,-73.48,24.44,4.1
24,Hovd,20,NO,1566430035,93,63.83,10.7,12.22,5.1
25,Yagodnoye,97,RU,1566430035,47,62.52,149.63,20.22,1.86
26,Ust-Tsilma,0,RU,1566430035,97,65.44,52.15,10.32,1.23
27,Walvis Bay,0,NA,1566430036,93,-22.95,14.51,19.0,4.1
28,Altay,62,CN,1566430036,67,47.83,88.13,10.92,1.3
29,Puerto Ayora,20,EC,1566430036,69,-0.74,-90.35,23.0,7.7
30,Waipawa,83,NZ,1566430036,86,-39.94,176.59,10.0,1.79
31,Cookeville,20,US,1566429868,62,36.16,-85.5,31.11,2.1
32,Zyryanka,46,RU,1566430037,45,65.73,150.89,22.22,4.23
33,Freeport,40,BS,1566429882,78,26.54,-78.7,28.0,2.6
34,Jijiga,75,ET,1566430037,88,9.35,42.8,14.72,4.55
35,Liverpool,0,GB,1566429821,82,53.41,-2.98,16.11,8.7
36,Kapaa,75,US,1566430037,59,22.08,-159.32,32.0,6.7
37,Gimli,69,CA,1566430038,55,50.63,-96.99,18.33,2.68
38,Deputatskiy,100,RU,1566430038,91,69.3,139.9,11.22,1.44
39,Buraydah,0,SA,1566430038,29,26.33,43.97,31.0,1.5
40,Upernavik,34,GL,1566430039,83,72.79,-56.15,4.22,3.18
41,New Norfolk,40,AU,1566430039,78,-42.78,147.06,8.33,7.2
42,Teya,90,MX,1566430039,94,21.05,-89.07,25.0,2.62
43,Chapais,90,CA,1566430039,72,49.78,-74.86,19.0,2.1
44,Atambua,20,ID,1566430040,70,-9.11,124.89,23.52,4.71
45,Kununurra,67,AU,1566430040,19,-15.77,128.74,20.0,3.1
46,Lebu,75,ET,1566430040,93,8.96,38.73,14.0,1.0
47,Poum,1,MK,1566430040,46,41.28,20.71,16.22,1.71
48,Santa Maria,0,BR,1566429926,34,-16.02,-48.01,26.0,1.5
49,Petropavlovsk-Kamchatskiy,75,RU,1566430041,82,53.05,158.65,13.0,1.0
50,Floresta,0,BR,1566430041,58,-8.6,-38.57,23.82,9.78
51,Alta Floresta,9,BR,1566430041,31,-9.87,-56.08,27.22,1.29
52,Doha,0,QA,1566430042,70,25.29,51.53,33.0,2.6
53,Kurchum,99,KZ,1566430042,67,48.57,83.65,16.02,2.51
54,Mahebourg,40,MU,1566430042,93,-20.41,57.7,19.44,2.6
55,Albany,75,US,1566429973,83,42.65,-73.75,24.0,2.6
56,Boulder City,1,US,1566429794,4,35.98,-114.83,42.78,6.2
57,Ponta do Sol,0,BR,1566430043,63,-20.63,-46.0,18.82,0.91
58,Verkhnevilyuysk,100,RU,1566430043,87,63.45,120.31,14.12,2.47
59,Cape Town,0,ZA,1566430043,81,-33.93,18.42,16.11,1.5
60,Thompson,20,CA,1566429874,51,55.74,-97.86,17.0,3.1
61,Bambous Virieux,40,MU,1566430044,93,-20.34,57.76,19.44,2.6
62,Severo-Kurilsk,57,RU,1566430044,87,50.68,156.12,8.72,7.25
63,Souillac,0,FR,1566429923,52,45.6,-0.6,20.0,4.94
64,Sisimiut,18,GL,1566430044,88,66.94,-53.67,5.92,5.33
65,Esperance,0,AU,1566430045,57,-33.86,121.89,9.0,8.7
66,Saint-Augustin,1,CA,1566430045,83,45.63,-73.98,24.0,4.1
67,Bluff,0,AU,1566430045,35,-23.58,149.07,18.52,1.69
68,Jamestown,55,AU,1566430045,79,-33.21,138.6,10.42,3.72
69,Tuatapere,27,NZ,1566430046,74,-46.13,167.69,11.67,2.24
70,Goderich,88,CA,1566430046,80,43.74,-81.71,23.89,2.24
71,Busselton,0,AU,1566430046,53,-33.64,115.35,12.22,8.19
72,Tasiilaq,87,GL,1566430047,65,65.61,-37.64,7.0,0.66
73,Ushuaia,40,AR,1566430047,52,-54.81,-68.31,5.0,5.1
74,Herat,0,AF,1566429922,30,34.35,62.22,19.32,5.34
75,Hermanus,86,ZA,1566430047,95,-34.42,19.24,16.11,0.45
76,Faanui,0,PF,1566430048,78,-16.48,-151.75,26.12,4.12
77,Bilibino,16,RU,1566430048,67,68.06,166.44,10.42,3.53
78,Yumbe,87,UG,1566430048,89,3.47,31.25,17.52,1.81
79,Vaini,94,IN,1566430048,92,15.34,74.49,23.72,0.59
80,Ostrovnoy,4,RU,1566429891,89,68.05,39.51,10.72,4.83
81,Margate,40,AU,1566430049,78,-43.03,147.26,8.33,7.2
82,Ostersund,0,SE,1566430049,81,63.18,14.64,8.0,3.1
83,Sistranda,40,NO,1566430049,87,63.73,8.83,11.67,3.1
84,Khatanga,40,RU,1566430049,72,71.98,102.47,11.72,4.6
85,Alenquer,0,BR,1566430050,83,-1.95,-54.74,28.0,2.1
86,Severnoye,0,RU,1566430050,93,54.09,52.54,14.62,2.81
87,Hilo,90,US,1566430050,62,19.71,-155.08,30.0,4.1
88,Carnarvon,0,ZA,1566430050,15,-30.97,22.13,12.02,2.51
89,Dikson,0,RU,1566430051,84,73.51,80.55,6.92,4.52
90,Carutapera,67,BR,1566430051,81,-1.2,-46.02,25.42,2.68
91,Kirakira,88,SB,1566430051,86,-10.46,161.92,26.22,7.92
92,Kavieng,93,PG,1566429785,73,-2.57,150.8,28.42,3.97
93,Iqaluit,20,CA,1566430052,75,63.75,-68.52,6.0,2.6
94,Christchurch,83,NZ,1566430052,81,-43.53,172.64,13.33,1.5
95,Armidale,100,AU,1566430052,54,-30.51,151.67,8.33,3.58
96,Guerrero Negro,0,MX,1566429943,81,27.97,-114.04,20.82,7.46
97,Karlstad,20,SE,1566430052,93,59.38,13.5,13.33,3.1
98,Mar del Plata,76,AR,1566430053,66,-46.43,-67.52,7.12,7.86
99,Qaqortoq,20,GL,1566430053,61,60.72,-46.03,10.0,3.6
100,Luanda,40,AO,1566430053,94,-8.83,13.24,22.0,3.1
101,Salinopolis,47,BR,1566430053,77,-0.61,-47.36,27.72,7.4
102,Klaksvik,84,FO,1566430053,100,62.23,-6.59,11.0,5.1
103,Makakilo City,75,US,1566430054,55,21.35,-158.09,33.0,3.6
104,Sobolevo,38,RU,1566430054,96,54.43,31.9,17.22,4.65
105,Hobyo,94,SO,1566430054,65,5.35,48.53,25.82,8.23
106,Port-Gentil,40,GA,1566430054,88,-0.72,8.78,24.0,3.1
107,Magan,0,OM,1566430055,79,24.42,56.58,30.0,3.1
108,Novoagansk,0,RU,1566430055,85,61.94,76.66,12.92,4.35
109,Longyearbyen,0,NO,1566429906,69,78.22,15.63,2.0,1.91
110,La Rioja,0,AR,1566430055,49,-29.41,-66.86,8.22,0.61
111,Hamilton,75,CA,1566429777,69,43.26,-79.87,29.0,3.6
112,Anshun,80,CN,1566430056,87,26.25,105.93,18.92,0.89
113,Luderitz,0,NA,1566430056,14,-26.65,15.16,25.0,4.1
114,Witbank,0,ZA,1566430056,69,-25.87,29.23,6.72,1.49
115,Arraial do Cabo,40,BR,1566430056,82,-22.97,-42.02,19.0,2.69
116,Salta,0,AR,1566430057,50,-24.79,-65.41,14.0,2.1
117,Leningradskiy,83,RU,1566430057,91,69.38,178.42,4.52,9.89
118,San-Pedro,55,CI,1566430057,92,4.75,-6.64,21.12,1.46
119,Los Llanos de Aridane,0,ES,1566430057,73,28.66,-17.92,22.0,6.7
120,Taganak,75,PH,1566430058,94,6.08,118.3,24.0,2.58
121,Airai,13,TL,1566430058,51,-8.93,125.41,24.92,0.28
122,Ngunguru,2,NZ,1566430058,78,-35.62,174.5,15.56,6.26
123,Taltal,14,CL,1566430058,83,-25.41,-70.49,11.62,1.34
124,Port Lincoln,36,AU,1566430058,67,-34.72,135.86,12.72,2.9
125,Marystown,88,CA,1566429948,88,47.17,-55.16,17.42,3.7
126,Mamlyutka,76,KZ,1566430059,87,54.94,68.54,12.62,4.09
127,Nanortalik,5,GL,1566430059,87,60.14,-45.24,4.52,2.41
128,Talnakh,96,RU,1566430060,100,69.49,88.39,10.0,2.0
129,Kidal,99,ML,1566430060,53,18.44,1.41,28.02,6.14
130,Panzhihua,100,CN,1566430060,90,26.59,101.72,20.02,0.53
131,Ucluelet,20,CA,1566430060,68,48.94,-125.55,21.67,5.7
132,Prince George,40,CA,1566429770,33,53.92,-122.75,23.0,10.3
133,Kirovskiy,79,RU,1566430061,93,45.09,133.51,19.02,3.59
134,Iberia,0,PE,1566430061,47,-11.41,-69.49,25.52,1.33
135,San Lazaro,40,BZ,1566430061,79,18.04,-88.66,31.0,3.1
136,Great Falls,1,US,1566430062,20,47.5,-111.29,34.0,7.2
137,Namatanai,100,PG,1566430062,84,-3.66,152.44,26.22,6.41
138,Puri,68,ID,1566430062,74,-7.54,112.45,23.82,2.75
139,Kavaratti,100,IN,1566430062,75,10.57,72.64,27.72,5.79
140,Bhatkal,100,IN,1566430063,85,13.97,74.57,25.32,0.81
141,Husavik,81,CA,1566430063,55,50.56,-96.99,17.78,3.58
142,Saint George,0,GR,1566430063,56,39.45,22.34,22.0,0.4
143,Brae,100,GB,1566429943,93,60.4,-1.35,13.0,7.2
144,Tiksi,100,RU,1566429896,95,71.64,128.87,5.22,2.8
145,Zempoala,76,MX,1566430064,90,20.09,-98.0,15.72,2.27
146,Furano,75,JP,1566430064,82,43.28,142.47,17.0,4.6
147,Havre-Saint-Pierre,90,CA,1566430064,68,50.23,-63.6,19.0,4.6
148,Narsaq,20,GL,1566429890,61,60.91,-46.05,10.0,3.6
149,Nhulunbuy,72,AU,1566430065,53,-12.18,136.78,25.0,7.7
150,Iquitos,40,PE,1566430065,319,-3.75,-73.25,6.0,1.0
151,Yelyzavethradka,21,UA,1566430065,69,48.8,32.4,19.12,2.14
152,Grand Gaube,40,MU,1566430065,93,-20.01,57.66,19.44,2.6
153,Chuy,3,UY,1566429947,86,-33.69,-53.46,7.42,2.18
154,Gambela,76,ET,1566430066,92,8.25,34.59,19.42,1.89
155,Salalah,75,OM,1566430066,78,17.01,54.1,27.0,3.6
156,Te Anau,30,NZ,1566430066,90,-45.41,167.72,4.12,1.73
157,Inhambane,5,MZ,1566430066,88,-23.87,35.38,13.42,1.5
158,Keshorai Patan,87,IN,1566430067,78,25.3,75.93,25.52,3.85
159,Boa Vista,0,BR,1566430067,78,2.82,-60.67,27.0,2.49
160,Dingle,100,PH,1566430067,85,11.0,122.67,24.42,0.67
161,Nizhneangarsk,27,RU,1566430067,61,55.78,109.57,10.82,0.97
162,Dalen,0,IQ,1566430067,27,35.23,45.96,26.0,5.1
163,Ribeira Grande,40,PT,1566429890,88,38.52,-28.7,23.0,6.2
164,Kaohsiung,75,TW,1566430068,88,22.62,120.31,28.33,2.6
165,Sao Jose da Coroa Grande,34,BR,1566430068,93,-8.9,-35.15,19.22,1.04
166,Gizo,40,IL,1566429925,69,31.8,34.94,26.0,1.5
167,Chinhoyi,41,ZW,1566430068,76,-17.36,30.19,9.02,2.5
168,General Pico,100,AR,1566430069,63,-35.66,-63.75,9.52,3.75
169,Saskylakh,100,RU,1566430069,82,71.97,114.09,8.42,2.47
170,Cabo San Lucas,40,MX,1566429853,66,22.89,-109.91,33.33,4.1
171,Bontang,92,ID,1566430069,92,0.12,117.47,24.92,0.82
172,Micheldorf,40,AT,1566430069,93,46.91,14.43,17.0,0.5
173,Tuktoyaktuk,40,CA,1566430070,46,69.44,-133.03,12.0,3.6
174,Vila Franca do Campo,75,PT,1566430070,94,37.72,-25.43,22.0,6.2
175,Kuala Terengganu,75,MY,1566430070,94,5.33,103.14,25.0,1.85
176,Punta Umbria,0,ES,1566430071,72,37.18,-6.97,25.0,0.45
177,San Juan,0,AR,1566430064,48,-31.54,-68.53,8.12,1.85
178,Lavrentiya,100,RU,1566430071,36,65.58,-170.99,13.32,2.04
179,Shubarkuduk,0,KZ,1566430071,63,49.15,56.49,21.82,5.47
180,Bathsheba,20,BB,1566429878,74,13.22,-59.52,28.0,4.1
181,Clyde River,75,CA,1566430071,87,70.47,-68.59,6.0,3.6
182,Port Elizabeth,1,US,1566430067,69,39.31,-74.98,30.56,3.6
183,La Ronge,20,CA,1566430072,63,55.1,-105.3,19.0,3.1
184,Avarua,0,CK,1566430072,65,-21.21,-159.78,27.0,3.1
185,Saint-Louis,40,SN,1566430072,88,16.03,-16.5,27.0,3.1
186,Cherskiy,99,RU,1566430073,68,68.75,161.3,10.32,9.01
187,Pangnirtung,40,CA,1566429865,93,66.15,-65.72,7.0,5.7
188,Kiruna,69,SE,1566430073,87,67.86,20.23,7.0,1.0
189,Manono,17,CD,1566430073,35,-7.3,27.4,18.92,0.68
190,Inongo,57,CD,1566430073,83,-1.93,18.29,23.22,1.09
191,Espanola,53,CA,1566430074,49,46.27,-81.77,22.78,3.58
192,Camacha,40,PT,1566430074,73,33.08,-16.33,22.0,5.1
193,Luang Prabang,100,LA,1566430074,97,19.89,102.14,21.02,0.22
194,Sao Joao da Barra,0,BR,1566430075,77,-21.64,-41.05,20.0,3.1
195,Basco,1,US,1566430075,78,40.33,-91.2,26.67,1.5
196,Qaanaaq,97,GL,1566429877,76,77.48,-69.36,0.92,2.74
197,Lyngseidet,90,NO,1566430075,87,69.58,20.21,11.67,7.7
198,Broken Hill,90,AU,1566429875,81,-31.97,141.45,10.0,6.2
199,Lakes Entrance,64,AU,1566430076,75,-37.88,147.99,10.0,8.16
200,Nome,1,US,1566430076,59,30.04,-94.42,33.89,4.1
201,Takoradi,94,GH,1566430076,94,4.89,-1.75,22.62,1.67
202,LOS ALGARROBOS,40,EC,1566430076,78,-3.25,-79.94,32.0,1.31
203,Canayan,100,PH,1566430076,86,8.2,125.14,24.44,2.68
204,Riyadh,0,SA,1566429783,22,24.63,46.72,30.0,1.5
205,Dawlatabad,0,AF,1566430077,33,36.41,64.91,20.82,3.53
206,Agara,0,GE,1566430077,39,42.04,43.82,15.62,2.06
207,New Ulm,1,US,1566430077,56,44.31,-94.46,24.0,4.1
208,Fort Nelson,90,CA,1566430078,93,58.81,-122.69,10.0,2.6
209,Zhuhai,20,CN,1566430078,67,40.71,112.04,15.0,2.0
210,Castro,20,CL,1566430078,100,-42.48,-73.76,8.0,2.6
211,Srandakan,54,ID,1566430078,87,-7.94,110.25,22.42,2.06
212,Beinamar,57,TD,1566430078,93,8.67,15.38,20.72,0.54
213,Nikko,75,JP,1566430079,83,36.75,139.62,24.44,0.5
214,Maiduguri,56,NG,1566430079,82,11.84,13.15,23.82,2.46
215,Ternate,75,PH,1566430079,83,14.29,120.72,27.0,2.1
216,Mirador,36,BR,1566430079,58,-6.37,-44.36,24.42,0.37
217,Shingu,40,JP,1566430080,83,33.72,135.99,28.0,2.1
218,Cidreira,30,BR,1566430080,85,-30.17,-50.22,10.02,3.14
219,Haines Junction,17,CA,1566430080,30,60.75,-137.51,12.12,1.5
220,Muros,0,ES,1566430080,87,42.77,-9.06,22.22,1.0
221,Jiwani,10,PK,1566430080,80,25.05,61.74,27.02,4.45
222,Gigmoto,100,PH,1566430081,77,13.78,124.39,27.42,9.71
223,Provideniya,90,RU,1566430081,75,64.42,-173.23,8.0,2.0
224,Padang,94,ID,1566430081,78,-0.92,100.36,26.92,3.98
225,Iguape,100,BR,1566430082,96,-24.7,-47.56,15.32,1.75
226,Guarapari,75,BR,1566430082,83,-20.67,-40.5,21.0,3.1
227,Mangan,62,IN,1566430082,72,27.5,88.54,14.72,1.75
228,Coahuayana,81,MX,1566430082,84,18.62,-100.35,27.32,0.8
229,Chipinge,62,ZW,1566430083,81,-20.19,32.62,12.22,1.75
230,Jacareacanga,79,BR,1566430083,52,-6.22,-57.76,26.92,1.11
231,Itarema,16,BR,1566430083,80,-2.92,-39.92,23.62,4.15
232,East London,0,ZA,1566430083,35,-33.02,27.91,14.62,2.19
233,Nuuk,75,GL,1566430084,87,64.17,-51.74,7.0,2.6
234,Lieksa,97,FI,1566430084,96,63.32,30.02,12.52,2.23
235,Grenaa,0,DK,1566430084,87,56.42,10.88,12.22,1.0
236,Vaitape,0,PF,1566430085,78,-16.52,-151.75,26.12,4.12
237,Buchanan,75,LR,1566430085,94,5.88,-10.05,23.0,6.2
238,Kuching,75,MY,1566430085,94,1.56,110.34,26.0,1.0
239,Ancud,20,CL,1566430086,100,-41.87,-73.83,8.0,2.6
240,Nordfjordeid,45,NO,1566430086,71,61.91,5.99,13.0,6.2
241,Barrow,100,AR,1566429889,66,-38.31,-60.23,7.52,3.54
242,Boralday,20,KZ,1566430086,31,43.36,76.86,23.0,4.0
243,Codrington,0,AU,1566430086,36,-28.95,153.24,19.0,7.2
244,Kaitangata,100,NZ,1566430087,75,-46.28,169.85,10.0,3.58
245,Muzaffarpur,40,IN,1566430087,94,26.12,85.39,26.0,1.5
246,Sitka,76,US,1566429936,46,37.17,-99.65,31.11,7.6
247,Manggar,100,ID,1566430087,78,-2.88,108.27,26.42,2.95
248,Sola,100,TZ,1566430087,49,-3.17,33.8,21.72,2.66
249,Bonthe,100,SL,1566430087,90,7.53,-12.5,23.62,4.91
250,Goma,3,CD,1566430088,76,-1.67,29.23,12.22,0.42
251,Kaeo,50,NZ,1566430088,100,-35.1,173.78,15.56,0.89
252,Muisne,75,EC,1566430088,88,0.61,-80.02,25.0,4.6
253,Lompoc,1,US,1566430088,60,34.64,-120.46,32.22,7.7
254,Yerbogachen,100,RU,1566430089,95,61.28,108.01,11.52,1.88
255,Fortuna,75,US,1566430089,69,40.6,-124.16,26.11,4.6
256,Fairbanks,1,US,1566429837,41,64.84,-147.72,14.44,1.44
257,Daman,78,IN,1566430089,79,20.42,72.83,27.82,6.11
258,Ishigaki,20,JP,1566430089,89,24.34,124.16,29.0,3.6
259,Natchitoches,1,US,1566429965,39,31.76,-93.09,37.0,2.1
260,Muzhi,100,RU,1566430090,79,65.4,64.7,11.52,2.84
261,Hasaki,75,JP,1566430090,94,35.73,140.83,25.0,3.1
262,Lagoa,0,PT,1566430090,69,37.14,-8.45,24.0,1.0
263,Ghanzi,0,BW,1566430090,43,-21.7,21.65,12.32,2.63
264,Necochea,100,AR,1566430091,84,-38.55,-58.74,7.22,2.24
265,Ilulissat,28,GL,1566430091,75,69.22,-51.1,7.0,1.58
266,Russell,40,US,1566430091,74,38.9,-98.86,29.0,7.7
267,Edd,54,ER,1566430091,58,13.93,41.69,30.82,2.97
268,Richmond,90,CA,1566430092,88,49.16,-123.14,20.0,6.2
269,Tabas,0,IR,1566430092,20,33.6,56.92,29.0,2.1
270,Romny,0,UA,1566430092,79,50.74,33.49,18.72,1.4
271,Awjilah,0,LY,1566430092,57,29.14,21.3,24.22,4.22
272,Alofi,40,NU,1566430093,83,-19.06,-169.92,28.0,3.6
273,Norman Wells,90,CA,1566430093,71,65.28,-126.83,12.0,1.5
274,Wattegama,100,LK,1566430093,92,7.35,80.68,21.92,1.83
275,Mbanza-Ngungu,90,CD,1566430093,77,-5.25,14.87,21.62,2.52
276,Santa Rosa,100,AR,1566430094,59,-36.62,-64.29,10.02,3.15
277,San Patricio,0,PY,1566430094,76,-26.98,-56.83,13.42,3.71
278,Havoysund,40,NO,1566430094,87,71.0,24.66,10.0,3.6
279,Ha Tinh,100,VN,1566430094,86,18.33,105.9,26.12,0.84
280,Plouzane,0,FR,1566430095,93,48.38,-4.62,14.44,2.1
281,Mercedes,37,UY,1566430095,67,-33.25,-58.03,10.56,1.79
282,Kalmunai,100,LK,1566430095,74,7.42,81.82,24.32,1.31
283,Carandai,90,BR,1566430095,93,-20.95,-43.81,15.0,2.6
284,Faya,0,SA,1566430096,33,18.39,42.45,23.0,3.1
285,Port Augusta,90,AU,1566430096,87,-32.49,137.76,11.67,2.1
286,Qasigiannguit,97,GL,1566429895,75,68.82,-51.19,7.0,0.71
287,Yangjiang,97,CN,1566430096,69,21.85,111.96,30.56,0.7
288,Parbatipur,0,BD,1566430097,74,25.66,88.92,28.52,1.56
289,Maragogi,34,BR,1566429858,93,-9.01,-35.22,19.22,1.04
290,Mogadishu,100,SO,1566430097,87,2.04,45.34,24.12,6.23
291,Chokurdakh,100,RU,1566430097,77,70.62,147.9,8.92,4.96
292,Mogok,100,MM,1566430098,99,22.92,96.51,20.62,1.54
293,Stabat,99,ID,1566430098,79,3.76,98.46,22.22,0.88
294,Nishihara,90,JP,1566430098,94,35.74,139.53,27.22,2.6
295,Progreso,0,UY,1566430098,81,-34.68,-56.22,9.44,3.6
296,Mount Pleasant,1,US,1566430098,37,33.16,-94.97,37.22,2.1
297,Rawson,19,AR,1566430099,58,-43.3,-65.11,10.52,5.27
298,Tokur,100,RU,1566430099,87,53.13,132.9,11.62,2.53
299,Corner Brook,75,CA,1566430099,72,48.95,-57.95,19.0,1.5
300,Gat,76,SN,1566430099,83,14.69,-16.54,29.0,2.1
301,Nouadhibou,0,MR,1566430100,73,20.93,-17.03,23.0,9.8
302,Tartagal,0,AR,1566429943,56,-22.52,-63.8,22.0,0.73
303,Jeremie,43,HT,1566430100,77,18.65,-74.12,28.12,1.12
304,Teknaf,98,BD,1566430100,83,20.86,92.31,27.82,3.37
305,Saint-Pierre,0,FR,1566430101,71,48.95,4.24,14.0,3.1
306,Egvekinot,70,RU,1566430101,46,66.32,-179.17,15.42,1.67
307,Huinan,17,CN,1566430101,77,42.68,126.04,18.62,5.61
308,Toora-Khem,78,RU,1566430101,93,52.47,96.11,6.82,0.81
309,Ahipara,44,NZ,1566430102,100,-35.17,173.16,14.44,0.89
310,Boende,10,CD,1566430102,97,-0.28,20.88,21.12,1.24
311,San Cristobal,99,HN,1566429894,77,14.68,-86.92,22.62,2.8
312,Iquique,20,CL,1566430103,72,-20.22,-70.14,15.0,5.1
313,Dakar,40,SN,1566429844,83,14.69,-17.45,28.0,6.11
314,Yaring,20,TH,1566430103,100,6.87,101.37,23.0,1.5
315,Sarh,20,TD,1566430103,94,9.14,18.39,23.0,1.41
316,Paamiut,100,GL,1566430104,88,61.99,-49.67,4.22,2.57
317,Shishou,0,CN,1566430104,86,29.72,112.42,25.92,4.59
318,Clearlake,1,US,1566430104,33,38.96,-122.63,36.0,5.1
319,Alugan,100,PH,1566430105,97,12.22,125.48,22.02,5.41
320,College,1,US,1566430105,41,64.86,-147.8,14.44,1.44
321,Miles City,1,US,1566430105,31,46.41,-105.84,32.0,5.7
322,Zhigansk,88,RU,1566430105,80,66.77,123.37,14.62,2.58
323,Tarauaca,45,BR,1566430048,88,-8.16,-70.77,21.62,0.3
324,Zalantun,100,CN,1566430106,97,48.0,122.72,14.42,2.66
325,Avera,1,US,1566430106,70,33.19,-82.53,34.0,2.1
326,Uthal,37,PK,1566430106,76,25.81,66.62,27.32,1.63
327,Kushima,20,JP,1566430107,70,31.5,131.29,29.0,2.1
328,Kathu,0,ZA,1566430107,38,-27.7,23.05,6.67,1.21
329,Saint Augustine,20,TT,1566430107,74,10.65,-61.4,28.0,2.1
330,Qadian,20,IN,1566430107,88,31.82,75.38,28.0,2.44
331,Kalabo,0,ZM,1566430108,43,-15.0,22.67,15.02,3.32
332,Beloha,0,MG,1566430108,84,-25.17,45.06,15.32,3.85
333,Ndungu,14,TZ,1566430108,95,-4.38,38.06,17.02,2.9
334,Nantucket,1,US,1566430004,88,41.28,-70.1,26.0,4.6
335,Xining,100,CN,1566430109,92,36.62,101.77,9.12,1.24
336,Rumonge,18,BI,1566430109,53,-3.97,29.44,18.82,1.66
337,Rome,0,IT,1566430013,64,41.89,12.48,24.44,0.5
338,Bata,40,GQ,1566430109,100,1.87,9.77,25.0,1.5
339,Peleduy,22,RU,1566430109,86,59.63,112.75,13.02,0.77
340,Bijar,0,IR,1566430110,32,35.87,47.6,16.12,2.62
341,Vao,24,EE,1566429907,96,59.1,26.19,11.52,3.14
342,Tulun,70,RU,1566430110,91,54.56,100.58,11.52,0.71
343,Barsovo,0,RU,1566430110,100,61.17,73.17,13.0,3.0
344,Benghazi,0,LY,1566430110,71,32.12,20.07,25.02,8.81
345,Chandbali,46,IN,1566430111,86,20.77,86.74,27.82,1.21
346,Haimen,14,CN,1566430111,61,31.87,121.18,35.0,2.21
347,Hirara,20,JP,1566430111,88,24.8,125.28,29.0,3.1
348,San Joaquin,100,PH,1566430111,85,10.59,122.14,25.72,2.03
349,Alyangula,47,AU,1566429907,53,-13.85,136.42,22.0,2.6
350,Yarada,100,IN,1566430112,82,17.65,83.27,26.72,1.57
351,Cockburn Town,84,TC,1566430016,77,21.46,-71.14,28.22,7.37
352,Lac du Bonnet,16,CA,1566430112,51,50.25,-96.06,18.33,5.0
353,Port Hardy,75,CA,1566430112,63,50.7,-127.42,17.0,7.2
354,Bethel,20,US,1566430113,39,60.79,-161.76,19.0,2.1
355,Torbay,75,CA,1566430113,64,47.66,-52.73,23.33,5.1
356,Marzuq,78,YE,1566430113,46,14.4,46.47,28.02,1.39
357,Treinta y Tres,55,UY,1566430113,92,-33.23,-54.39,4.62,2.59
358,West Wendover,1,US,1566429964,8,40.74,-114.07,34.0,4.6
359,Namibe,52,AO,1566430114,89,-15.19,12.15,19.52,4.55
360,Dzaoudzi,90,YT,1566430114,83,-12.79,45.27,26.0,9.8
361,Vanimo,64,PG,1566430114,67,-2.67,141.3,27.82,2.49
362,Wagar,54,US,1566430114,78,31.44,-87.99,30.56,2.54
363,Pekan,75,MY,1566430115,94,3.49,103.39,25.0,0.74
364,Sao Filipe,57,CV,1566430115,81,14.9,-24.5,24.42,3.67
365,Fort Morgan,1,US,1566430115,39,40.25,-103.8,28.33,4.1
366,Ongandjera,0,NA,1566430115,22,-17.88,15.07,16.22,4.26
367,Nizhniy Tsasuchey,100,RU,1566430115,78,50.52,115.13,13.62,6.26
368,Honningsvag,0,NO,1566430116,93,70.98,25.97,10.0,1.5
369,Coolum Beach,0,AU,1566430116,42,-26.53,153.09,19.44,1.79
370,Chinacota,40,CO,1566430116,33,7.61,-72.6,33.0,6.2
371,Santo Antonio do Ica,83,BR,1566430116,67,-3.1,-67.94,26.42,0.76
372,Quatre Cocos,40,MU,1566430116,93,-20.21,57.76,19.44,2.6
373,Dembi Dolo,76,ET,1566430117,92,8.53,34.8,19.42,1.89
374,Xingyi,100,CN,1566430117,90,24.19,102.82,16.52,1.43
375,Shenjiamen,16,CN,1566430117,79,29.96,122.3,27.22,1.37
376,Heide,3,DE,1566430117,93,54.19,9.09,14.0,1.0
377,Oistins,20,BB,1566430000,74,13.07,-59.53,28.0,4.1
378,Bandarbeyla,70,SO,1566430118,56,9.49,50.81,27.02,8.87
379,Vardo,20,US,1566430118,55,39.62,-77.74,30.0,3.1
380,Todos Santos,40,MX,1566430118,66,23.45,-110.23,33.33,4.1
381,Ozernovskiy,100,RU,1566430119,96,51.5,156.52,8.32,3.5
382,Tilichiki,8,RU,1566429948,68,60.47,166.1,16.32,1.99
383,Orcopampa,49,PE,1566430119,51,-15.27,-72.34,3.32,1.44
384,Kysyl-Syr,100,RU,1566430119,89,63.9,122.77,13.42,2.73
385,Buncrana,53,GB,1566430119,76,55.14,-7.45,14.32,10.95
386,Karratha,0,AU,1566430120,14,-20.74,116.85,19.52,8.83
387,Nyrob,100,RU,1566430120,99,60.74,56.73,13.92,1.77
388,Saint-Paul,0,FR,1566430120,81,45.22,1.9,14.44,1.7
389,Hofn,100,IS,1566430121,97,64.25,-15.21,3.32,5.02
390,Vestmannaeyjar,100,IS,1566430121,84,63.44,-20.27,11.22,5.99
391,Pravokubanskiy,0,RU,1566430121,89,43.92,41.88,16.62,1.89
392,Kodinsk,65,RU,1566430121,80,58.6,99.18,12.42,1.3
393,Kahului,40,US,1566430121,58,20.89,-156.47,31.0,10.8
394,Adrar,0,DZ,1566430122,12,27.87,-0.29,36.0,7.7
395,Mehamn,0,NO,1566430122,93,71.03,27.85,10.0,1.5
396,Samarai,49,PG,1566430122,66,-10.62,150.67,24.52,3.61
397,Raudeberg,62,NO,1566430122,71,61.99,5.14,13.0,6.2
398,Macapa,0,BR,1566430123,79,0.05,-51.07,29.0,5.1
399,Rizhao,74,CN,1566430123,71,35.43,119.46,23.02,2.55
400,Colares,0,PT,1566430123,41,38.8,-9.45,24.0,2.1
401,Komsomolskiy,97,RU,1566429897,84,67.55,63.78,11.12,4.26
402,Kaseda,75,JP,1566430123,88,31.42,130.32,26.0,0.5
403,Abong Mbang,96,CM,1566430124,98,3.98,13.18,18.92,0.99
404,Zabaykalsk,100,CN,1566430124,93,49.64,117.33,12.32,4.75
405,Meadville,20,US,1566430124,88,41.64,-80.15,27.22,4.18
406,Baghdad,0,IQ,1566430125,25,33.3,44.38,32.0,6.7
407,Beringovskiy,68,RU,1566430125,40,63.05,179.32,16.52,1.04
408,Saldanha,0,PT,1566430125,38,41.42,-6.55,19.92,2.82
409,Ambilobe,100,MG,1566430126,80,-13.19,49.05,23.02,2.54
410,Malindi,20,KE,1566430126,83,-3.22,40.12,25.0,8.2
411,Trelew,19,AR,1566430126,58,-43.25,-65.31,10.52,5.27
412,Baruun-Urt,0,MN,1566429858,56,46.68,113.28,13.92,5.62
413,Bafq,0,IR,1566430126,16,31.6,55.4,16.52,2.9
414,Saint-Francois,0,FR,1566430126,81,46.42,3.91,12.0,0.87
415,Waingapu,61,ID,1566430127,73,-9.65,120.26,23.22,7.27
416,Montelibano,39,CO,1566430127,88,7.98,-75.42,26.42,2.95
417,Rio Grande,65,BR,1566429940,90,-32.03,-52.1,8.33,1.42
418,Sungurlu,9,TR,1566430127,65,40.17,34.38,20.32,0.96
419,Dauphin,1,CA,1566430128,59,51.15,-100.04,18.0,6.2
420,Ambon,0,FR,1566430128,77,47.55,-2.56,17.22,3.6
421,Pedra Branca,19,BR,1566430128,41,-5.46,-39.72,24.02,1.99
422,Bongandanga,56,CD,1566430128,99,1.51,21.07,19.12,0.78
423,Baykit,0,RU,1566429961,82,61.68,96.39,10.82,1.24
424,Kotelnich,70,RU,1566430129,96,58.31,48.34,14.22,1.73
425,Suntar,100,RU,1566430129,96,62.16,117.65,11.92,1.62
426,Panorama,0,BR,1566430129,50,-21.35,-51.86,22.22,2.69
427,Zhireken,100,RU,1566430129,98,52.82,117.29,10.22,1.61
428,Shwebo,100,MM,1566430130,88,22.57,95.7,26.02,3.47
429,Ottumwa,75,US,1566430130,94,41.02,-92.41,24.0,1.5
430,Isangel,40,VU,1566430130,60,-19.55,169.27,24.0,5.1
431,Calvinia,12,ZA,1566430130,16,-31.47,19.78,15.52,3.04
432,Preobrazheniye,100,RU,1566430131,96,42.9,133.91,17.32,0.83
433,Yar-Sale,52,RU,1566430131,77,66.83,70.83,10.12,3.08
434,Tonantins,83,BR,1566430131,67,-2.86,-67.77,26.42,0.76
435,Kodiak,90,US,1566430131,83,39.95,-94.76,25.56,2.1
436,Prado,21,CO,1566430131,34,3.75,-74.93,30.72,4.95
437,Dalvik,20,SE,1566430132,93,57.79,14.13,10.0,2.6
438,Odienne,98,CI,1566430132,96,9.51,-7.57,21.12,2.03
439,Juneau,75,US,1566429846,48,58.3,-134.42,17.0,5.7
440,Bogatyye Saby,84,RU,1566430132,92,56.01,50.45,16.12,1.18
441,Verkhnyaya Toyma,100,RU,1566430133,94,62.24,45.0,12.12,0.7
442,Comodoro Rivadavia,0,AR,1566430133,58,-45.87,-67.48,12.0,4.6
443,Sinegorye,93,RU,1566430133,46,62.09,150.53,20.72,1.81
444,Manaure,0,CO,1566430134,74,11.78,-72.45,30.0,6.2
445,Palmer,75,AU,1566430134,82,-34.85,139.16,15.56,4.1
446,Pokhara,64,NP,1566430134,77,28.21,83.99,12.52,1.5
447,Bowen,0,AU,1566430134,48,-20.01,148.25,21.67,1.5
448,Garissa,36,KE,1566430134,79,-0.46,39.64,22.02,7.5
449,Jega,68,NG,1566430135,86,12.22,4.38,23.72,2.33
450,Flin Flon,20,CA,1566430135,45,54.77,-101.88,18.0,3.6
451,Luino,20,IT,1566430135,88,46.0,8.74,25.0,0.5
452,Bridlington,100,GB,1566430135,67,54.08,-0.19,17.22,5.7
453,Santa Cruz de Tenerife,75,ES,1566429958,93,28.47,-16.25,23.0,9.3
454,Gladstone,0,AU,1566430136,26,-23.84,151.26,21.11,3.1
455,Ornskoldsvik,9,SE,1566430136,76,63.29,18.72,10.0,4.1
456,Gavrilov-Yam,0,RU,1566430136,93,57.3,39.85,13.0,1.0
457,Plaster Rock,40,CA,1566430136,64,46.91,-67.4,24.0,2.6
458,Puerto Colombia,75,CO,1566430137,83,10.99,-74.96,29.0,2.6
459,Fenoarivo,75,MG,1566430137,82,-18.93,47.44,16.0,3.1
460,Saint-Denis,0,FR,1566430137,72,48.94,2.36,17.22,1.5
461,Aklavik,75,CA,1566429891,54,68.22,-135.01,13.0,2.6
462,Henties Bay,0,NA,1566430138,57,-22.12,14.28,17.62,1.87
463,Ixtapa,90,MX,1566430138,94,20.71,-105.21,28.0,4.59
464,Axim,91,GH,1566430138,92,4.87,-2.24,23.32,3.24
465,Novodugino,32,RU,1566430138,94,55.63,34.3,18.52,3.98
466,Blumenau,90,BR,1566429884,72,-26.92,-49.07,15.56,5.7
467,Oranjestad,20,AW,1566430139,74,12.52,-70.03,29.0,8.2
468,Tura,46,RU,1566430139,74,64.27,100.22,12.32,1.64
469,Ambulu,86,ID,1566430139,89,-8.35,113.61,22.52,0.88
470,Sorland,100,NO,1566430139,84,67.67,12.69,10.92,1.86
471,Nuristan,0,UZ,1566430140,48,38.49,65.64,19.0,1.0
472,Katsuura,40,JP,1566430140,83,33.93,134.5,30.56,1.0
473,Ariogala,27,LT,1566430140,93,55.26,23.48,13.0,2.6
474,Westlock,1,CA,1566430140,53,54.15,-113.85,27.78,5.7
475,Srednekolymsk,78,RU,1566430141,44,67.46,153.71,19.32,5.36
476,Rimini,5,IT,1566430141,74,44.06,12.57,27.22,2.6
477,Sikasso,93,ML,1566430141,96,11.32,-5.68,21.82,2.1
478,Labuhan,82,ID,1566430142,68,-2.54,115.51,25.92,0.47
479,Lorengau,95,PG,1566430142,87,-2.02,147.27,25.72,4.39
480,Sabha,0,LY,1566430142,24,27.03,14.43,26.52,4.51
481,Dekar,0,BW,1566430142,44,-21.53,21.93,12.72,3.78
482,Crib Point,58,AU,1566430143,74,-38.35,145.2,11.67,2.24
483,Avenal,40,US,1566430143,22,36.0,-120.13,36.0,4.6
484,San Bartolome,75,PH,1566430143,83,14.1,121.16,27.0,2.1
485,Westport,90,US,1566430085,94,41.14,-73.36,27.22,10.8
486,Shiliguri,33,IN,1566430143,90,26.7,88.43,16.62,1.24
487,Morbegno,20,IT,1566430144,88,46.13,9.57,23.33,0.5
488,Kawalu,68,ID,1566430144,81,-7.38,108.21,19.32,0.92
489,Vostok,81,RU,1566430144,76,46.45,135.83,18.82,1.96
490,Neryungri,98,RU,1566430144,73,56.66,124.71,14.82,1.36
491,Van,20,TR,1566430145,15,38.51,43.37,25.0,3.1
492,Santiago,100,PH,1566429941,83,16.69,121.54,25.52,0.2
493,Vila Velha,20,BR,1566430145,74,-3.71,-38.6,26.0,3.6
494,Ulaanbaatar,75,MN,1566429853,93,47.92,106.92,5.0,1.0
495,Bereda,20,ES,1566430146,88,43.27,-7.54,19.44,1.5
496,Nizhneudinsk,77,RU,1566430146,89,54.91,99.03,11.02,0.86
497,Oleksandrivka,21,UA,1566430146,69,48.97,32.24,19.12,2.14
498,Dingtao,44,CN,1566430146,86,35.07,115.56,23.62,1.42
499,Coihueco,100,CL,1566430146,93,-36.63,-71.83,12.78,1.5
500,Arlit,39,NE,1566430147,64,18.74,7.39,27.42,5.66
501,Coihaique,75,CL,1566430147,81,-45.58,-72.07,7.0,2.1
502,Ugoofaaru,100,MV,1566429911,75,5.67,73.0,27.82,5.86
503,Kruisfontein,16,ZA,1566430147,19,-34.0,24.73,15.72,3.59
504,Somerset,75,US,1566429898,83,41.77,-71.13,26.11,5.1
505,Behat,0,IN,1566430148,80,30.17,77.62,21.72,1.14
506,Berlevag,75,NO,1566430148,93,70.86,29.09,10.0,2.6
507,Trairi,25,BR,1566430148,85,-3.28,-39.27,21.22,2.49
508,Elat,100,CM,1566430148,99,2.91,11.16,19.42,0.76
509,Wanlaweyn,100,SO,1566430148,83,2.62,44.89,23.72,6.28
510,Dejen,54,ET,1566430149,90,10.16,38.15,15.02,0.08
511,Dong Hoi,100,VN,1566430149,89,17.48,106.6,24.72,1.67
512,Banda Aceh,100,ID,1566429857,70,5.56,95.32,28.32,4.7
513,Hwange,8,ZW,1566430149,63,-18.35,26.5,11.22,2.03
514,Pahrump,1,US,1566429918,3,36.21,-115.98,41.67,5.7
515,Kefamenanu,0,ID,1566430150,38,-9.45,124.48,25.82,0.45
516,Aginskoye,100,RU,1566430150,90,51.11,114.54,11.62,2.5
517,Nelson Bay,18,AU,1566430150,36,-32.72,152.14,18.89,11.3
518,Mackay,1,CA,1566430150,73,53.65,-115.58,23.0,2.1
519,Sosva,95,RU,1566430151,75,59.17,61.86,10.52,1.58
520,Angoche,53,MZ,1566430151,86,-16.23,39.91,19.72,3.18
521,Pevek,68,RU,1566430091,95,69.7,170.27,2.62,6.92
522,Loikaw,100,MM,1566430151,98,19.67,97.21,18.82,1.03
523,Nizhnevartovsk,83,RU,1566430152,100,60.93,76.58,12.0,1.0
524,Khuzhir,91,RU,1566430152,52,53.19,107.35,14.12,0.67
525,Jaen,48,PE,1566430152,92,-5.71,-78.81,15.12,0.7
526,Yanam,100,IN,1566430152,89,16.73,82.22,24.92,5.43
527,Miracema do Tocantins,0,BR,1566430153,27,-9.56,-48.4,26.12,1.0
528,Narasannapeta,97,IN,1566430153,85,18.42,84.04,26.12,2.52
529,Toamasina,75,MG,1566430153,94,-18.17,49.38,22.0,2.1
530,Okhotsk,96,RU,1566430154,70,59.36,143.24,17.12,0.67
531,Pangody,1,RU,1566430154,89,65.85,74.49,8.02,1.86
532,Tual,72,ID,1566430154,84,-5.67,132.75,25.02,8.67
533,Carson City,1,US,1566429983,9,39.16,-119.77,34.44,4.6
534,Viedma,100,AR,1566430154,71,-40.81,-62.99,7.22,5.66
535,Northam,0,AU,1566430155,28,-31.65,116.67,14.0,5.7
536,Chirongui,90,YT,1566430155,83,-12.93,45.15,26.0,9.8
537,Lima,90,PE,1566429967,82,-12.06,-77.04,16.0,5.1
538,Ayan,0,IR,1566430156,27,38.23,44.7,14.02,2.53
